id,status_of_project,label,planning_approval_street_no,planning_approval_street_name,zip,section_415_declaration_of_intent,section_415_declaration_label,tenure,total_units_in_building_or_phase,final_bmr_on_site,final_bmr_off_site,off_site_units_at_this_site,total_bmr_s_in_this_building_or_phase,principal_project_address,off_site_address,lottery_date,entitlement_yr,building_completion_calendar_year,description,latitude,longitude,location_address,location_city,location_state,location_zip
121,Entitled,5400 Geary Blvd,5400,Geary Blvd.,94121,ON,On-Site BMR Project,Ownership,37,4,0,0,4,,,,2013,,"5400 Geary Street, San Francisco, CA 94121",37.78050748,-122.4775012,5400 Geary Street,San Francisco,CA,94121
87,Completed,"Candlestick Point - The Cove, Phase I",1 & 101,Crescent Way,94134,ON,On-Site BMR Project,Ownership,128,14,0,0,14,,,37956,2002,2001,"101 Crescent Way, San Francisco, CA 94134",37.71125419,-122.3890186,101 Crescent Way,San Francisco,CA,94134
189,Completed,The Century,2200,Market Street,94114,ON,On-Site BMR Project,Ownership,22,3,0,0,3,,,41828,2008,2014,"2200 Market Street, San Francisco, CA 94114",37.76566378,-122.4314283,2200 Market Street,San Francisco,CA,94114
62,First Const Doc Issued,Summit 800,800,Brotherhood Way,94132,OFF/FEE,Combination Project,Ownership,182,0,36,0,0,,833 Jamestown (19/196 rental units) & 1 Capitol (17/28 ownership units),,2005,,"800 Brotherhood Way, San Francisco, CA 94132",37.71464215,-122.4787714,800 Brotherhood Way,San Francisco,CA,94132
180,Entitled,2198 Market,2198,Market Street,94114,ON,On-Site BMR Project,Rental,87,10,0,0,10,,,,2014,,"2198 Market Street, San Francisco, CA 94114",37.76630445,-122.4306379,2198 Market Street,San Francisco,CA,94114
148,Completed,348 Hyde,336,Hyde Street,94109,ON,On-Site BMR Project,Rental,12,1,0,0,1,,,,1999,2004,"336 Hyde Street, San Francisco, CA 94109",37.78406687,-122.4159555,336 Hyde Street,San Francisco,CA,94109
167,Completed,81 Lansing,81,Lansing Street,94105,ON,On-Site BMR Project,Ownership,33,3,0,0,3,,,,1994,2002,"81 Lansing Street, San Francisco, CA 94105",37.78573653,-122.3943318,81 Lansing Street,San Francisco,CA,94105
301,Completed,Pacific Homes (AKA 1800 Washington and 1701 Jackson),1901,Van Ness Avenue,94109,ON,On-Site BMR Project,Ownership,149,6,0,0,6,,,,1996,2002,"1901 Van Ness Avenue, San Francisco, CA 94109",37.79328282,-122.4230432,1901 Van Ness Avenue,San Francisco,CA,94109
133,Completed,Haight Street Lofts,645,Haight Street,94117,ON,On-Site BMR Project,Ownership,20,3,0,0,3,,,,1992,1995,"645 Haight Street, San Francisco, CA 94117",37.77177318,-122.4328456,645 Haight Street,San Francisco,CA,94117
47,Completed,18th & Arkansas,300,Arkansas Street,94107,ON,On-Site BMR Project,Ownership,61,6,0,0,6,,,,1991,1994,"300 Arkansas Street, San Francisco, CA 94107",37.76182668,-122.3984235,300 Arkansas Street,San Francisco,CA,94107
200,Entitled,706 Mission,706,Mission Street,94103,FEE,Fee BMR Project,Unknown,185,0,0,0,0,,,,2013,,"706 Mission Street, San Francisco, CA 94103",37.78603382,-122.4023482,706 Mission Street,San Francisco,CA,94103
138,Completed,Rincon Green,333,Harrison Street,94105,ON,On-Site BMR Project,Rental,326,49,0,0,49,,,41248,2009,2013,"333 Harrison Street, San Francisco, CA 94105",37.78706266,-122.3916641,333 Harrison Street,San Francisco,CA,94105
12,Completed,788 8th Avenue,788,08th Avenue,94103,ON,On-Site BMR Project,Rental,12,1,0,0,1,,,,1997,2004,"788 8th Avenue, San Francisco, CA 94118",37.77368366,-122.4658643,788 8th Avenue,San Francisco,CA,94118
277,BP Issued,832 Sutter Street,832,Sutter Street,94109,ON,On-Site BMR Project,Rental,20,2,0,0,2,,,,2014,,"832 Sutter Street, San Francisco, CA 94109",37.7885481,-122.4141326,832 Sutter Street,San Francisco,CA,94109
59,Completed,Galvin Apartments,785-787,Brannan Street,94103,ON (FOR OFF-SITE),Units for Off-Site Project,Rental,0,0,0,56,56,4th and Freelon (56 units),,38869,2005,2006,"785 Brannan Street, San Francisco, CA 94103",37.77346703,-122.4026409,785 Brannan Street,San Francisco,CA,94103
261,Completed,2900 Sloat Blvd.,2900,Sloat (aka Wawona),94116,ON,On-Site BMR Project,Ownership,60,6,0,0,6,,,,1995,1996,"2900 Sloat Blvd., San Francisco, CA 94116",37.73558775,-122.5053717,2900 Sloat Blvd,San Francisco,CA,94116
309,Completed,1725 Washington Street,1725,Washington Street,94109,ON,On-Site BMR Project,Ownership,16,2,0,0,2,,,41626,2003,2006,"1725 Washington Street, San Francisco, CA 94109",37.79317336,-122.4217768,1725 Washington Street,San Francisco,CA,94109
276,BP Issued,693 Sutter Street,693,Sutter Street,94102,UNDECLARED,Combination Project,Unknown,16,,,,,,,,2005,,"693 Sutter Street, San Francisco, CA 94102",37.78881312,-122.4116563,693 Sutter Street,San Francisco,CA,94102
142,Completed,Hayes Street Gardens,342,Hayes Street,94102,ON,On-Site BMR Project,Ownership,14,1,0,0,1,,,,1995,2004,"342 Hayes Street, San Francisco, CA 94102",37.777008,-122.4221732,342 Hayes Street,San Francisco,CA,94102
197,Completed,Potrero Square,701,Minnesota,94107,ON,On-Site BMR Project,Ownership,58,5,0,0,5,,,,1991,1993,"701 Minnesota, San Francisco, CA 94107",37.76127474,-122.3905154,701 Minnesota,San Francisco,CA,94107
243,Completed,949 Post Street,949,Post Street,94109,ON,On-Site BMR Project,Rental,24,24,0,0,24,,,,1997,1999,"949 Post Street, San Francisco, CA 94109",37.78711351,-122.4174765,949 Post Street,San Francisco,CA,94109
162,Completed,2545 Judah Street (AKA 1408 31st),2545,Judah Street,94122,ON,On-Site BMR Project,Rental,13,2,0,0,2,,,39653,2002,2008,"2545 Judah Street, San Francisco, CA 94122",37.76111342,-122.4895379,2545 Judah Street,San Francisco,CA,94122
299,Completed,900 Van Ness,900,Van Ness Avenue,94109,ON,On-Site BMR Project,Rental,28,3,0,0,3,,,,1999,2003,"900 Van Ness Avenue, San Francisco, CA 94109",37.78401617,-122.420946,900 Van Ness Avenue,San Francisco,CA,94109
1,Completed,The Metropolitan,333-355,01st Street,94105,ON,On-Site BMR Project,Ownership,342,34,0,0,34,,,38446,2000,2005,"333 1st Street, San Francisco, CA 94105",37.78690379,-122.3939008,333 1st Street,San Francisco,CA,94105
31,Entitled,Park Merced - Phase I,3711,19th Avenue,94132,ON/FEE/OFF,Combination Project,Rental?,5679,284,0,0,284,,,,2011,,"3711 19th Avenue, San Francisco, CA 94132",37.72040791,-122.4754144,3711 19th Avenue,San Francisco,CA,94132
120,Completed,6901 Geary Blvd,6901,Geary Blvd. (aka 501 33rd Street),94121,ON,On-Site BMR Project,Rental,15,2,0,0,2,,,,2001,2006,"6901 Geary Blvd., San Francisco, CA 94121",37.77966285,-122.4936274,6901 Geary Blvd,San Francisco,CA,94121
157,Completed,One Ecker Place,16,Jessie (aka One Ecker Place),94105,FEE,Fee BMR Project,Ownership,51,0,0,0,0,,,,2007,2010,"16 Jessie Street, San Francisco, CA 94105",37.7898133,-122.3987888,16 Jessie Street,San Francisco,CA,94105
15,Completed,"301-303, 307-309 & 313-315 Moraga",1701,09th Avenue,94122,FEE,Fee BMR Project,Unknown,6,0,0,0,0,,,,2010,2013,"1701 9th Avenue, San Francisco, CA 94122",37.75638791,-122.4658136,1701 9th Avenue,San Francisco,CA,94122
251,Completed,The Potrero,450,Rhode Island (aka 450 Kansas),94107,ON,On-Site BMR Project,Ownership,165,20,0,0,20,,,39160,2003,2007,"450 Rhode Island, San Francisco, CA 94107",37.76412894,-122.4025441,450 Rhode Island,San Francisco,CA,94107
307,Completed,945 Vermont,929,Vermont Street,94107,ON,On-Site BMR Project,Ownership,10,1,0,0,1,,,37639,1998,2004,"929 Vermont Street, San Francisco, CA 94107",37.75777411,-122.4035719,929 Vermont Street,San Francisco,CA,94107
264,Completed,566 South Van Ness Avenue,566,South Van Ness Avenue,94110,ON,On-Site BMR Project,Ownership,34,4,0,0,4,,,39345,2005,2007,"566 South Van Ness Avenue, San Francisco, CA 94110",37.76400795,-122.4174143,566 South Van Ness Avenue,San Francisco,CA,94110
32,Entitled,2350 19th Avenue,2350,19th Avenue,94107,FEE,Fee BMR Project,Unknown,10,0,0,0,0,,,,2008,,"2350 19th Avenue, San Francisco, CA 94107",37.76080512,-122.4054659,2350 19th Avenue,San Francisco,CA,94107
297,Completed,1868 Van Ness Avenue,1868,Van Ness Avenue,94109,FEE,Fee BMR Project,Unknown,35,0,0,0,0,,,,2007,2010,"1868 Van Ness Avenue, San Francisco, CA 94109",37.79287837,-122.4227263,1868 Van Ness Avenue,San Francisco,CA,94109
181,First Const Doc Issued,"Trinity Plaza Apartments, Phase III",1167,Market Street,94103,ON,On-Site BMR Project,Rental,550,83,0,0,83,,,,2006,,"1167 Market Street, San Francisco, CA 94103",37.77922755,-122.4140445,1167 Market Street,San Francisco,CA,94103
26,First Const Doc Issued,"Onyx, Phase II",1717,17th Street,94103,FEE,Fee BMR Project,Ownership,21,0,0,0,0,,,,2010,2014,"1717 17th Street, San Francisco, CA 94103",37.76482262,-122.4013976,1717 17th Street,San Francisco,CA,94103
92,BP Issued,25-35 Dolores Street,25-35,Dolores Street,94103,ON,On-Site BMR Project,Ownership,37,4,0,0,4,,,,2011,,"25 Dolores Street, San Francisco, CA 94103",37.7685537,-122.4266452,25 Dolores Street,San Francisco,CA,94103
17,First Const Doc Issued,248/252 9th Street,248/252,09th Street,94103,FEE,Fee BMR Project,Unknown,15,0,0,0,0,,,,2014,,"248 9th Street, San Francisco, CA 94103",37.77433701,-122.4123972,248 9th Street,San Francisco,CA,94103
262,BP Issued,2800 Sloat Boulevard,2800,Sloat Blvd.,94116,ON/FEE,Combination Project,Unknown,55,1,0,0,1,,,,2008,,"2800 Sloat Blvd., San Francisco, CA 94116",37.73558807,-122.5047296,2800 Sloat Blvd,San Francisco,CA,94116
69,Completed,901 Bush Street,901,Bush Street,94109,ON,On-Site BMR Project,Ownership,38,5,0,0,5,,,40088,2008,2008,"901 Bush Street, San Francisco, CA 94109",37.78970384,-122.4123062,901 Bush Street,San Francisco,CA,94109
125,Completed,True Hope Square,950,Gilman Ave. (aka Arelious Walker Drive; aka 900 Gilman),94124,ON (FOR OFF-SITE),Units for Off-Site Project,Ownership,0,0,0,20,20,300 Spear Street (20 units),,37703,2001,2007,"950 Gilman Ave., San Francisco, CA 94124",37.71770581,-122.3871554,950 Gilman Ave,San Francisco,CA,94124
229,Completed,8 Octavia,4-20,Octavia Blvd.,94102,ON,On-Site BMR Project,Ownership,47,7,0,0,7,,,41956,2012,2014,"4 Octavia Blvd., San Francisco, CA 94102",37.7725164,-122.423496,4 Octavia Blvd,San Francisco,CA,94102
145,Completed,1234 Howard Street,1234,Howard Street,94103,ON,On-Site BMR Project,Ownership,18,2,0,0,2,,,39307,2002,2007,"1234 Howard Street, San Francisco, CA 94103",37.77576353,-122.4122475,1234 Howard Street,San Francisco,CA,94103
37,Completed,3520 20th Street,3520,20th Street,94110,ON,On-Site BMR Project,Ownership,14,1,0,0,1,,,,2006,2008,"3520 20th Street, San Francisco, CA 94110",37.75861758,-122.4196416,3520 20th Street,San Francisco,CA,94110
29,Completed,"Onyx, Phase I",1717,17th Street,94103,ON,On-Site BMR Project,Ownership,20,2,0,0,2,,,41961,2010,2014,"1717 17th Street, San Francisco, CA 94103",37.76482262,-122.4013976,1717 17th Street,San Francisco,CA,94103
94,Completed,30 Dore Street,30,Dore Street,94103,ON,On-Site BMR Project,Rental,42,4,0,0,4,,,39224,2005,2007,"30 Dore Street, San Francisco, CA 94103",37.77408696,-122.4132569,30 Dore Street,San Francisco,CA,94103
222,Completed,199 New Montgomery,199,New Montgomery,94105,ON,On-Site BMR Project,Ownership,166,18,0,0,18,,,38311,2003,2006,"199 New Montgomery, San Francisco, CA 94105",37.79001812,-122.3962296,199 New,San Francisco,CA,94105
241,Completed,1946 Polk Street,1946,Polk Street (AKA 1591 or 1596 Pacific),94109,FEE,Fee BMR Project,Unknown,41,0,0,0,0,,,,2009,2013,"1946 Polk Street, San Francisco, CA 94109",37.79474737,-122.4214864,1946 Polk Street,San Francisco,CA,94109
43,Completed,1311 43rd Avenue,1311,43rd Avenue,94122,ON,On-Site BMR Project,Rental,12,1,0,0,1,,,,2000,2004,"1311 43rd Ave., San Francisco, CA 94122",37.76213895,-122.5028744,1311 43rd Ave,San Francisco,CA,94122
235,Completed,1461 Pine Street,1461,Pine Street,94109,FEE,Fee BMR Project,Rental,35,0,0,0,0,,,,2005,2013,"1461 Pine Street, San Francisco, CA 94109",37.78970268,-122.4197165,1461 Pine Street,San Francisco,CA,94109
18,Completed,AVA 55 9th,55,09th Street,94103,ON,On-Site BMR Project,Rental,273,33,0,0,33,,,41667,2011,2014,"55 9th Street, San Francisco, CA 94103",37.77681441,-122.4154116,55 9th Street,San Francisco,CA,94103
118,Completed,3445 Geary (PM Name 3425 Geary),3425,Geary Blvd,94118,ON,On-Site BMR Project,Rental,33,3,0,0,3,,,,1997,2001,"3425 Geary Blvd, San Francisco, CA 94118",37.78131292,-122.4557472,3425 Geary Blvd,San Francisco,CA,94118
105,Completed,The Folsom Lantern,1168-1174,Folsom Street,94103,ON,On-Site BMR Project,Rental,22,1,0,0,1,,,38465,2003,2005,"1168 Folsom Street, San Francisco, CA 94103",37.77555382,-122.4093979,1168 Folsom Street,San Francisco,CA,94103
141,First Const Doc Issued,450 Hayes,450,Hayes Street,94102,ON,On-Site BMR Project,Ownership,24,5,0,0,5,,,,2013,,"450 Hayes Street, San Francisco, CA 94102",37.77677876,-122.4239326,450 Hayes Street,San Francisco,CA,94102
30,Entitled,3420 18th Street,3420,18th Street,94110,FEE,Fee BMR Project,Unknown,16,0,0,0,0,,,,2014,,"3420 18th Street, San Francisco, CA 94110",37.76182783,-122.4199712,3420 18th Street,San Francisco,CA,94110
77,Completed,520 Chestnut Street,520,Chestnut Street,94133,ON,On-Site BMR Project,Ownership,20,2,0,0,2,,,39202,2004,2007,"520 Chestnut Street, San Francisco, CA 94133",37.8039276,-122.412032,520 Chestnut Street,San Francisco,CA,94133
215,Entitled,1000 Mississippi Street (1001 Texas),1000,Mississippi Street (aka 1001 Texas),94107,ON/FEE,Combination Project,Unknown,28,4,0,0,4,,,,2008,,"1000 Mississippi Street, San Francisco, CA 94107",37.75325601,-122.3937533,1000 Mississippi Street,San Francisco,CA,94107
60,First Const Doc Issued,270-280 Brighton,270-280,Brighton Street,94112,ON,On-Site BMR Project,Rental,29,3,0,0,3,,,,2014,,"270 Brighton Street, San Francisco, CA 94112",37.72331051,-122.4551043,270 Brighton Street,San Francisco,CA,94112
259,Completed,3190 Scott Street,3190,Scott Street,94123,ON,On-Site BMR Project,Ownership,12,1,0,0,1,2395 Lombard,,40738,2006,2010,"3190 Scott Street, San Francisco, CA 94123",37.79906837,-122.4409308,3190 Scott Street,San Francisco,CA,94123
201,Entitled,5050 Mission Street,5050,Mission Street,94112,ON,On-Site BMR Project,Unknown,61,9,0,0,9,,,,2008,,"5050 Mission Street, San Francisco, CA 94112",37.7174984,-122.4402848,5050 Mission Street,San Francisco,CA,94112
112,Entitled,325 Fremont,325,Fremont Street,94105,FEE,Fee BMR Project,Unknown,118,0,0,0,0,,,,2014,,"325 Fremont Street, San Francisco, CA 94105",37.78763434,-122.3930908,325 Fremont Street,San Francisco,CA,94105
156,Completed,Candlestick Heights,833-881,Jamestown Avenue,94124,ON (FOR OFF-SITE),Units for Off-Site Project,Rental,196,0,0,19,19,800 Brotherhood Way (19 units),,41856,2004,2014,"833 Jamestown Avenue, San Francisco, CA 94124",37.71667786,-122.3905191,833 Jamestown Avenue,San Francisco,CA,94124
95,Completed,Candlestick Cove,101,Executive Park,94134,ON,On-Site BMR Project,Ownership,150,18,0,0,18,,,40127,2005,2008,"101 Executive Park Blvd., San Francisco, CA 94134",37.71112974,-122.3948186,101 Executive Park Blvd,San Francisco,CA,94134
45,Completed,Ocean View Village,2251,Alemany Blvd,94112,ON,On-Site BMR Project,Ownership,37,2,0,0,2,,,,1992,1995,"2251 Alemany Blvd, San Francisco, CA 94112",37.7171487,-122.4431123,2251 Alemany Blvd,San Francisco,CA,94112
49,Completed,Silver Park,901-933,Bayshore Blvd.,94124,ON,On-Site BMR Project,Rental,40,4,0,0,4,,,,2003,2003,"901 Bayshore Blvd., San Francisco, CA 94124",37.73260597,-122.40442,901 Bayshore Blvd,San Francisco,CA,94124
306,Completed,Artani,818,Van Ness Avenue,94109,ON/FEE,Combination Project,Ownership,52,2,0,0,2,,,40487,2005,2008,"818 Van Ness Avenue, San Francisco, CA 94109",37.78318088,-122.4207859,818 Van Ness Avenue,San Francisco,CA,94109
221,Completed,74 New Montgomery Street,74,New Montgomery Street,94105,ON,On-Site BMR Project,Ownership,107,11,0,0,11,,,39729,2005,2008,"74 New Montgomery Street, San Francisco, CA 94105",37.78783714,-122.4009977,74 New Montgomery Street,San Francisco,CA,94105
224,Completed,248 Ocean Avenue,248,Ocean Avenue,94112,FEE,Fee BMR Project,Rental,5,0,0,0,0,,,,2008,2012,"248 Ocean Avenue, San Francisco, CA 94112",37.72323792,-122.4421319,248 Ocean Avenue,San Francisco,CA,94112
204,First Const Doc Issued,1415 Mission Street,1415,Mission Street,94103,ON,On-Site BMR Project,Rental,117,18,0,0,18,,,,2009,,"1415 Mission Street, San Francisco, CA 94103",37.77509751,-122.4160903,1415 Mission Street,San Francisco,CA,94103
283,Entitled,645 Texas,645,Texas Street,94107,ON,On-Site BMR Project,Ownership,91,11,0,0,11,,,,2014,,"645 Texas Street, San Francisco, CA 94107",37.75806448,-122.3950888,645 Texas Street,San Francisco,CA,94107
236,Entitled,1527-45 Pine,1527-45,Pine Street,94109,ON,On-Site BMR Project,Ownership,103,12,0,0,12,,,,2014,,"1527 Pine Street, San Francisco, CA 94109",37.78955289,-122.4209552,1527 Pine Street,San Francisco,CA,94109
23,Entitled,1150 16th Street (AKA 1208 8th Street),1150,16th Street,94107,ON,On-Site BMR Project,Ownership,15,0,0,0,2,,,,2012,,"1150 16th Street, San Francisco, CA 94107",37.76639379,-122.3981226,1150 16th Street,San Francisco,CA,94107
199,Completed,Millennium Tower,301,Mission Street,94105,OFF-SITE,Off-Site BMR Project,Ownership,419,0,81,0,0,,125 Mason Street (81 rental units),,2005,2009,"301 Mission Street, San Francisco, CA 94105",37.79095752,-122.3960406,301 Mission Street,San Francisco,CA,94105
218,Completed,75 Moss Street,75,Moss Street,94103,ON,On-Site BMR Project,Ownership,14,1,0,0,1,,,39699,2007,2008,"75 Moss Street, San Francisco, CA 94103",37.77750348,-122.4076406,75 Moss Street,San Francisco,CA,94103
143,BP Issued,1 Henry Adams,1,Henry Adams,94103,LAND DED,Land Dedication,Rental,239,0,0,0,0,,,,2013,,"1 Henry Adams, San Francisco, CA 94103",37.77446735,-122.412419,1 Henry,San Francisco,CA,94103
16,Entitled,520 9th Street,520,09th Street,94103,FEE,Fee BMR Project,Unknown,12,0,0,0,0,,,,2014,,"520 9th Street, San Francisco, CA 94103",37.77094699,-122.4081476,520 9th Street,San Francisco,CA,94103
65,Completed,1299 Bush Street,1299,Bush Street,94109,FEE,Fee BMR Project,Unknown,26,0,0,0,0,,,,2006,2008,"1299 Bush Street, San Francisco, CA 94109",37.788903,-122.4184364,1299 Bush Street,San Francisco,CA,94109
6,Completed,5800 Third Street - Buildings 1 & 2,5800,03rd Street,94124,ON,On-Site BMR Project,Ownership,139,17,0,0,17,,,,2005,2010,"5800 3rd Street, San Francisco, CA 94124",37.72488453,-122.3946798,5800 3rd Street,San Francisco,CA,94124
240,Completed,Argenta,1,Polk Street,94102,ON,On-Site BMR Project,Rental,179,9,0,0,9,,,40060,2001,2008,"1 Polk Street, San Francisco, CA 94102",37.77671647,-122.417866,1 Polk Street,San Francisco,CA,94102
269,Completed,The Infinity,300,"Spear Street (aka 160 Harrison, 301 Main)",94105,OFF-SITE,Off-Site BMR Project,Ownership,655,0,163,0,0,,888 7th Street (170/224 ownership units) & 900 Gilman (20 ownership units),,2003,2008,"300 Spear Street, San Francisco, CA 94105",37.78977758,-122.3906571,300 Spear Street,San Francisco,CA,94105
292,Completed,411 Valencia Street,411,Valencia Street,94103,ON,On-Site BMR Project,Ownership,16,2,0,0,2,,,41380,2010,2012,"411 Valencia Street, San Francisco, CA 94103",37.76626412,-122.4219646,411 Valencia Street,San Francisco,CA,94103
175,Completed,38 Dolores,2001,Market Street,94114,FEE,Fee BMR Project,Unknown,81,0,0,0,0,,,,2010,2013,"2001 Market Street, San Francisco, CA 94114",37.76871733,-122.4272409,2001 Market Street,San Francisco,CA,94114
163,Completed,888 7th Street,601,King Street,94107,ON/ON (FOR OFF-SITE),Combination Project,Ownership,80,27,0,143,170,300 Spear Street (143 units from Spear and 27 from bldg's own on-site BMR),,39041,2003,2008,"601 King Street, San Francisco, CA 94107",37.77058748,-122.4014506,601 King Street,San Francisco,CA,94107
282,Entitled,1201-1225 Tennessee,1201-1225,Tennessee Street,94107,ON,On-Site BMR Project,Rental,259,34,0,0,34,,,,2014,,"1201 Tennessee Street, San Francisco, CA 94107",37.75593507,-122.3890347,1201 Tennessee Street,San Francisco,CA,94107
53,Completed,Watermark,501,Beale Street,94105,ON,On-Site BMR Project,Ownership,135,16,0,0,16,,,38740,2003,2006,"501 Beale Street, San Francisco, CA 94105",37.78594394,-122.3892813,501 Beale Street,San Francisco,CA,94105
196,Completed,8 McLea Court,8,McLea Court,94103,ON,On-Site BMR Project,Rental,102,3,0,0,3,,,,2004,2007,"8 McLea Court, San Francisco, CA 94103",37.77229401,-122.4084184,8 McLea Court,San Francisco,CA,94103
169,Completed,545 Leavenworth,545,Leavenworth,94109,ON,On-Site BMR Project,Ownership,12,1,0,0,1,,,37848,1999,2001,"545 Leavenworth Street, San Francisco, CA 94109",37.78614329,-122.4147525,545 Leavenworth Street,San Francisco,CA,94109
48,Completed,329 Bay Street,329,Bay Street,94133,ON,On-Site BMR Project,Ownership,21,2,0,0,2,,,39297,2004,2007,"329 Bay Street, San Francisco, CA 94133",37.80571364,-122.4126957,329 Bay Street,San Francisco,CA,94133
139,Completed,1 Hawthorne,1,Hawthorne Street,94105,FEE,Fee BMR Project,Ownership,165,0,0,0,0,,,,2006,2010,"1 Hawthorne Street, San Francisco, CA 94105",37.78561439,-122.3989812,1 Hawthorne Street,San Francisco,CA,94105
93,Completed,1598 Dolores,1598,Dolores Street,94110,ON,On-Site BMR Project,Ownership,13,1,0,0,1,,,39043,2005,2004,"1598 Dolores Street, San Francisco, CA 94110",37.74397899,-122.4245135,1598 Dolores Street,San Francisco,CA,94110
232,Entitled,690 Page,690,Page Street,94117,ON,On-Site BMR Project,Ownership,12,0,0,0,1,,,,2014,,"690 Page Street, San Francisco, CA 94117",37.77288744,-122.4320022,690 Page Street,San Francisco,CA,94117
70,Completed,1635 California,1635,California  Street,94109,OFF-SITE,Off-Site BMR Project,Ownership,36,0,6,0,0,,2428 Bayshore Blvd. (6/12 ownership units),,2003,2006,"1635 California Street, San Francisco, CA 94109",37.79045282,-122.4213954,1635 California Street,San Francisco,CA,94109
208,Completed,1587 15th Street,1905,Mission Street,94103,ON,On-Site BMR Project,Ownership,24,3,0,0,3,,,39106,2004,2007,"1905 Mission Street, San Francisco, CA 94103",37.76653375,-122.4197753,1905 Mission Street,San Francisco,CA,94103
108,Completed,Mosso,900,Folsom Street,94103,ON,On-Site BMR Project,Rental,282,40,0,0,40,,,41864,2010,2014,"900 Folsom Street, San Francisco, CA 94107",37.77993364,-122.4038773,900 Folsom Street,San Francisco,CA,94107
146,Completed,1277 Howard Street/776 Tehama Street,1277,Howard Street,94103,ON,On-Site BMR Project,Ownership,14,2,0,0,2,,,,2003,2006,"1277 Howard Street, San Francisco, CA 94103",37.77530723,-122.4127303,1277 Howard Street,San Francisco,CA,94103
217,Completed,843 Montgomery,843-847,Montgomery Street,94133,FEE,Fee BMR Project,Unknown,13,0,0,0,0,,,,2002,2008,"843 Montgomery Street, San Francisco, CA 94133",37.79674875,-122.4035798,843 Montgomery Street,San Francisco,CA,94133
293,Completed,299 Valencia Street,299,Valencia Street,94103,ON,On-Site BMR Project,Ownership,36,4,0,0,4,,,41109,2008,2012,"299 Valencia Street, San Francisco, CA 94110",37.76824592,-122.4221527,299 Valencia Street,San Francisco,CA,94110
263,Completed,1 South Park,1,South Park Avenue,94107,FEE,Fee BMR Project,Ownership,35,0,0,0,0,,,,2004,2008,"1 South Park Avenue, San Francisco, CA 94107",37.78226701,-122.393062,1 South Park Avenue,San Francisco,CA,94107
39,Completed,2900 22nd Street,2900,22nd Street,94110,FEE,Fee BMR Project,Unknown,14,0,0,0,0,,,,2000,2003,"2900 22nd Street, San Francisco, CA 94110",37.75586823,-122.4124111,2900 22nd Street,San Francisco,CA,94110
284,Completed,Metro@Showplace Square,675,Townsend (aka 660 King or 701 8th Street),94103,ON,On-Site BMR Project,Rental,148,15,0,0,15,,,40051,1999,2006,"675 Townsend Street, San Francisco, CA 94103",37.77051719,-122.4032205,675 Townsend Street,San Francisco,CA,94103
42,Completed,St. Paul's Commons,317,29th Street,94131,ON,On-Site BMR Project,Ownership,36,4,0,0,4,,,,1996,1999,"317 29th Street, San Francisco, CA 94131",37.74362293,-122.4275083,317 29th Street,San Francisco,CA,94131
79,Completed,745 Clement,741,Clement Street,94118,ON,On-Site BMR Project,Ownership,14,1,0,0,1,,,,2000,2004,"741 Clement Street, San Francisco, CA 94118",37.78277286,-122.4673185,741 Clement Street,San Francisco,CA,94118
205,First Const Doc Issued,1875 Mission Street,1875,Mission Street,94103,ON,On-Site BMR Project,Ownership,39,6,0,0,6,,,,2012,,"1875 Mission Street, San Francisco, CA 94103",37.76707417,-122.4198249,1875 Mission Street,San Francisco,CA,94103
56,Completed,77 Bluxome,77,Bluxome Street,94107,ON,On-Site BMR Project,Rental,102,10,0,0,10,,,41149,2004,2007,"77 Bluxome Street, San Francisco, CA 94107",37.77647679,-122.3972908,77 Bluxome Street,San Francisco,CA,94107
22,Completed,Fifteen Fifteen,1501,15th Street,94103,ON,On-Site BMR Project,Ownership,40,7,0,0,7,,,41892,2011,2014,"1501 15th Street, San Francisco, CA 94103",37.76675269,-122.4179881,1501 15th Street,San Francisco,CA,94103
286,Completed,88 Townsend (Formerly 639-669 2nd Street),88,Townsend Street,94107,ON,On-Site BMR Project,Ownership,112,13,0,0,13,,,38091,2003,2004,"88 Townsend Street, San Francisco, CA 94107",37.7807241,-122.3904382,88 Townsend Street,San Francisco,CA,94107
106,Completed,Shipley Square,821,Folsom Street,94107,ON,On-Site BMR Project,Ownership,78,8,0,0,8,,,38794,2004,2004,"821 Folsom Street, San Francisco, CA 94107",37.78173696,-122.4015116,821 Folsom Street,San Francisco,CA,94107
246,Completed,Odeon,150,Powell Street,94102,ON,On-Site BMR Project,Ownership,29,3,0,0,3,,,39158,2003,2006,"150 Powell Street, San Francisco, CA 94102",37.78615827,-122.4079356,150 Powell Street,San Francisco,CA,94102
126,Completed,525 Gough St,525-527,Gough Street,94102,ON,On-Site BMR Project,Ownership,21,3,0,0,3,,,38694,2002,2006,"525 Gough Street, San Francisco, CA 94102",37.77829394,-122.4232932,525 Gough Street,San Francisco,CA,94102
280,Completed,475 Tehama Street,475,Tehama Street (aka 470 Clementina),94103,ON,On-Site BMR Project,Ownership,12,1,0,0,1,,,38527,2004,2005,"475 Tehama Street, San Francisco, CA 94103",37.77972738,-122.4060205,475 Tehama Street,San Francisco,CA,94103
99,Completed,Broderick Place,1275,Fell Street,94117,ON,On-Site BMR Project,Ownership,70,8,0,0,8,,,38937,2003,2007,"1275 Fell Street, San Francisco, CA 94117",37.77387379,-122.4388364,1275 Fell Street,San Francisco,CA,94117
114,First Const Doc Issued,399 Fremont,355-399,Fremont Street,94105,FEE,Fee BMR Project,Unknown,452,,,,0,,,,2006,,"355 Fremont Street, San Francisco, CA 94105",37.78711351,-122.3924317,355 Fremont Street,San Francisco,CA,94105
234,First Const Doc Issued,307 Octavia,,Parcel P,94102,FEE,Fee BMR Project,Unknown,182,0,0,0,0,,,,2012,,"307 Octavia Blvd., San Francisco, CA 94102",37.77491997,-122.4243556,307 Octavia Blvd,San Francisco,CA,94102
233,Completed,The Hayes,55,Page Street,94102,ON,On-Site BMR Project,Ownership,128,17,0,0,17,,,41124,2000,2008,"55 Page Street, San Francisco, CA 94102",37.77409272,-122.4220061,55 Page Street,San Francisco,CA,94102
153,Completed,1578 Indiana,1578,Indiana Street,94107,ON,On-Site BMR Project,Ownership,12,2,0,0,2,,,,1998,2003,"1578 Indiana Street, San Francisco, CA 94107",37.75048708,-122.3905143,1578 Indiana Street,San Francisco,CA,94107
132,Completed,1748 Haight,1728-48,Haight Street,94117,FEE,Fee BMR Project,Unknown,30,0,0,0,0,,,,2004,2004,"1728 Haight Street, San Francisco, CA 94117",37.76953775,-122.4507337,1728 Haight Street,San Francisco,CA,94117
256,Completed,Mission Terrace Condominiums,1800-1820,San Jose (aka 8-18 Colonial and 305-315 Santa Rosa),94112,ON,On-Site BMR Project,Ownership,18,2,0,0,2,,,38101,2001,2004,"1800 San Jose Ave., San Francisco, CA 94112",37.72879076,-122.4402825,1800 San Jose Ave,San Francisco,CA,94112
258,Completed,The Royal,201,Sansome Street,94104,ON,On-Site BMR Project,Ownership,46,5,0,0,5,,,38841,2004,2006,"201 Sansome Street, San Francisco, CA 94104",37.79230338,-122.4009332,201 Sansome Street,San Francisco,CA,94104
64,First Const Doc Issued,55 Laguna Street,218-220,Buchanan Street,94102,ON,On-Site BMR Project,Rental,330,50,0,0,50,,,,2012,,"218 Buchanan Street, San Francisco, CA 94102",37.77207738,-122.4270358,218 Buchanan Street,San Francisco,CA,94102
308,Completed,1840 Washington Street,1840,Washington Street,94109,FEE,Fee BMR Project,Ownership,26,0,0,0,0,,,,2005,2012,"1840 Washington Street, San Francisco, CA 94109",37.79298784,-122.4236931,1840 Washington Street,San Francisco,CA,94109
63,Completed,Union,2101,Bryant Street,94110,ON,On-Site BMR Project,Ownership,76,9,0,0,9,,,40039,2003,2009,"2101 Bryant Street, San Francisco, CA 94110",37.75990352,-122.4099348,2101 Bryant Street,San Francisco,CA,94110
144,Completed,Las Casitas,88,Hoff /3338 17th St,94110,ON,On-Site BMR Project,Ownership,60,6,0,0,6,,,,1998,2000,"3338 17th St, San Francisco, CA 94110",37.76338802,-122.4206706,3338 17th St,San Francisco,CA,94110
2,Completed,750 Second Street,750,02nd Street,94107,FEE,Fee BMR Project,Unknown,14,0,0,0,0,,,,2009,2012,"750 2nd Street, San Francisco, CA 94107",37.78019751,-122.3900384,750 2nd Street,San Francisco,CA,94107
190,Completed,Wilson Building,973,Market Street,94102,ON,On-Site BMR Project,Rental,67,7,0,0,7,,,41901,2005,2014,"973 Market Street, San Francisco, CA 94102",37.78260934,-122.4097924,973 Market Street,San Francisco,CA,94102
271,First Const Doc Issued,527-529 Stevenson Street,527-529,Stevenson Street,94103,ON,On-Site BMR Project,Ownership,60,9,0,0,9,,,,2011,,"527 Stevenson Street, San Francisco, CA 94103",37.78124724,-122.4102909,527 Stevenson Street,San Francisco,CA,94103
78,Completed,Villa North Beach,690,Chestnut Street,94133,ON,On-Site BMR Project,Ownership,117,4,0,0,4,,,,1994,1997,"690 Chestnut Street, San Francisco, CA 94133",37.80361764,-122.4145221,690 Chestnut Street,San Francisco,CA,94133
21,Entitled,1450 15th Street,1450,15th Street,94103,ON,On-Site BMR Project,Ownership,23,3,0,0,3,,,,2014,,"1450 15th Street, San Francisco, CA 94103",37.76687829,-122.4168013,1450 15th Street,San Francisco,CA,94103
226,Completed,70 Ocean,98,Ocean Avenue,94112,ON,On-Site BMR Project,Rental,20,2,0,0,2,,,,1998,2000,"98 Ocean Avenue, San Francisco, CA 94112",37.72369394,-122.4382642,98 Ocean Avenue,San Francisco,CA,94112
160,Completed,6 Mint Plaza,418-420,Jessie Street,94103,ON,On-Site BMR Project,Rental,25,3,0,0,3,,,39892,2004,2008,"418 Jessie Street, San Francisco, CA 94103",37.78284315,-122.4077881,418 Jessie Street,San Francisco,CA,94103
150,Completed,680 Illinois,680,Illinois Street,94107,OFF-SITE,Off-Site BMR Project,Ownership,35,0,6,0,0,,2428 Bayshore Blvd. (6/12 ownership units),,2005,2009,"680 Illinois Street, San Francisco, CA 94107",37.76340761,-122.387864,680 Illinois Street,San Francisco,CA,94107
109,Completed,231 Franklin Street,231,Franklin Street,94102,FEE,Fee BMR Project,Unknown,32,0,0,0,0,,,,2007,2010,"231 Franklin Street, San Francisco, CA 94102",37.77672338,-122.4212929,231 Franklin Street,San Francisco,CA,94102
129,Completed,The Redstone,1450,Greenwich Street,94109,ON,On-Site BMR Project,Ownership,24,4,0,0,4,,,,2002,2004,"1450 Greenwich Street, San Francisco, CA 94109",37.80054796,-122.4235029,1450 Greenwich Street,San Francisco,CA,94109
206,First Const Doc Issued,2554-2558 Mission Street,2554-2558,Mission Street,94110,LAND DED,Land Dedication,Ownership,114,0,0,0,0,,,,2013,,"2554 Mission Street, San Francisco, CA 94110",37.75604684,-122.4188443,2554 Mission Street,San Francisco,CA,94110
170,BP Issued,2353 Lombard Street,2353,Lombard Street,94123,FEE,Fee BMR Project,Unknown,21,0,0,0,0,,,,2013,,"2353 Lombard Street, San Francisco, CA 94123",37.79928276,-122.4401765,2353 Lombard Street,San Francisco,CA,94123
250,Entitled,300 - 314 Randolph Street,300 - 314,Randolph Street,94132,ON,On-Site BMR Project,Unknown,18,2,0,0,2,,,,2007,,"300 Randolph Street, San Francisco, CA 94132",37.71430773,-122.4655693,300 Randolph Street,San Francisco,CA,94132
164,Completed,8 Landers,8,Landers Street,94114,ON,On-Site BMR Project,Ownership,14,1,0,0,1,,,39304,2003,2006,"8 Landers Street, San Francisco, CA 94114",37.76754776,-122.4278735,8 Landers Street,San Francisco,CA,94114
103,Entitled,923 Folsom,923,Folsom Street,94107,ON,On-Site BMR Project,Ownership,114,14,0,0,14,,,,2014,,"923 Folsom Street, San Francisco, CA 94107",37.7799878,-122.4037113,923 Folsom Street,San Francisco,CA,94107
265,Completed,550 South Van Ness Ave,550,South Van Ness Avenue,94110,ON,On-Site BMR Project,Ownership,36,8,0,0,8,,,,1989,1992,"550 South Van Ness Avenue, San Francisco, CA 94110",37.76436746,-122.4174535,550 South Van Ness Avenue,San Francisco,CA,94110
220,Completed,574 Natoma Street,574,Natoma Street,94103,ON,On-Site BMR Project,Ownership,11,2,0,0,2,,,41066,2011,2012,"574 Natoma Street, San Francisco, CA 94103",37.7789035,-122.4093287,574 Natoma Street,San Francisco,CA,94103
242,Completed,Tower Plaza,600,Portola,94127,ON,On-Site BMR Project,Rental,15,2,0,0,2,,,,2000,2003,"600 Portola, San Francisco, CA 94127",37.74542626,-122.4521625,600 Portola,San Francisco,CA,94127
73,Completed,1630 California,1630,California Street,94109,FEE,Fee BMR Project,Ownership,40,0,0,0,0,,,,2002,2008,"1630 California Street, San Francisco, CA 94109",37.79053042,-122.4212145,1630 California Street,San Francisco,CA,94109
266,Completed,140 South Van Ness,140,South Van Ness Avenue,94103,ON,On-Site BMR Project,Ownership,223,23,0,0,23,,,37639,1999,2003,"140 South Van Ness Avenue, San Francisco, CA 94103",37.77161993,-122.4181909,140 South Van Ness Avenue,San Francisco,CA,94103
179,Entitled,"Trinity Plaza Apartments, Phase IV",1167,Market Street,94103,ON,On-Site BMR Project,Rental,493,74,0,0,74,,,,2006,,"1167 Market Street, San Francisco, CA 94103",37.77922755,-122.4140445,1167 Market Street,San Francisco,CA,94103
239,BP Issued,101 Polk Street,101,Polk Street,94102,ON,On-Site BMR Project,Rental,162,19,0,0,19,,,,2013,,"101 Polk Street, San Francisco, CA 94102",37.77776389,-122.4181137,101 Polk Street,San Francisco,CA,94102
54,Completed,388 Beale,388,Beale Street,94105,ON,On-Site BMR Project,Rental,23,23,0,0,23,,,,1997,2003,"388 Beale Street, San Francisco, CA 94105",37.78781755,-122.3916677,388 Beale Street,San Francisco,CA,94105
158,Entitled,570 Jessie Street,570,Jessie Street,94103,ON,On-Site BMR Project,Ownership,47,6,0,0,6,,,,2008,,"570 Jessie Street, San Francisco, CA 94103",37.78086353,-122.4099475,570 Jessie Street,San Francisco,CA,94103
72,Completed,2525 California,2525,California Street,94115,FEE,Fee BMR Project,Unknown,16,0,0,0,0,,,,2003,2007,"2525 California Street, San Francisco, CA 94115",37.78861378,-122.4360559,2525 California Street,San Francisco,CA,94115
257,Completed,1301 San Jose/Glen Court,1301,San Jose Avenue  (aka Bosworth or Milton),94112,ON,On-Site BMR Project,Ownership,31,3,0,0,3,,,,1996,2003,"1301 San Jose Ave., San Francisco, CA 94112",37.73427115,-122.4296263,1301 San Jose Ave,San Francisco,CA,94112
260,Entitled,233 Shipley,233-237,Shipley Street,94107,FEE,Fee BMR Project,Unknown,21,0,0,0,0,,,,2014,,"233 Shipley Street, San Francisco, CA 94107",37.77923766,-122.4035408,233 Shipley Street,San Francisco,CA,94107
57,Completed,39 Boardman Place,39-43,Boardman Place,94103,ON,On-Site BMR Project,Ownership,14,1,0,0,1,,,,1995,1996,"39 Boardman Place, San Francisco, CA 94103",37.77467462,-122.4029416,39 Boardman Place,San Francisco,CA,94103
124,Completed,888 Paris,965-985,Geneva Avenue,94112,ON,On-Site BMR Project,Rental,67,8,0,0,8,,,,2003,2004,"965 Geneva Avenue, San Francisco, CA 94112",37.71581607,-122.4396671,965 Geneva Avenue,San Francisco,CA,94112
296,Completed,2655 Van Ness Avenue,2655,Van Ness Avenue,94109,FEE,Fee BMR Project,Ownership,29,0,0,0,0,,,,2004,2007,"2655 Van Ness Avenue, San Francisco, CA 94109",37.80000524,-122.4243729,2655 Van Ness Avenue,San Francisco,CA,94109
102,Entitled,1140 Folsom,1140,Folsom Street,94103,ON,On-Site BMR Project,Ownership,112,13,0,0,13,,,,2014,,"1140 Folsom Street, San Francisco, CA 94103",37.77606428,-122.4087676,1140 Folsom Street,San Francisco,CA,94103
173,Completed,1130 Mariposa,1130,Mariposa Street,94107,ON,On-Site BMR Project,Rental,23,2,0,0,2,,,,1992,1999,"1130 Mariposa Street, San Francisco, CA 94107",37.76398836,-122.3950116,1130 Mariposa Street,San Francisco,CA,94107
193,Completed,Book Concern Building,83 - 91,McAllister Street,94102,ON,On-Site BMR Project,Ownership,60,6,0,0,6,,,38807,2004,2007,"83 McAllister Street, San Francisco, CA 94102",37.78093382,-122.4134066,83 McAllister Street,San Francisco,CA,94102
101,Completed,Blu,631,Folsom Street,94107,FEE,Fee BMR Project,Ownership,120,0,0,0,0,,,,2008,2008,"631 Folsom Street, San Francisco, CA 94107",37.78507742,-122.3972805,631 Folsom Street,San Francisco,CA,94107
216,Completed,Sierra Heights,639,Missouri Street (aka 25 Sierra),94107,ON,On-Site BMR Project,Ownership,67,7,0,0,7,,,38740,2001,2006,"639 Missouri Street, San Francisco, CA 94107",37.75795271,-122.3960348,639 Missouri Street,San Francisco,CA,94107
176,Completed,Linea,1960-1998,Market Street,94114,OFF-SITE,Off-Site BMR Project,Ownership,114,0,23,0,0,,1600 Market Street (23/24 ownership units),,2010,2014,"1960 Market Street, San Francisco, CA 94114",37.77021854,-122.4257098,1960 Market Street,San Francisco,CA,94114
155,Completed,Millwheel North,1275-1301,Indiana Street,94107,ON,On-Site BMR Project,Ownership,39,5,0,0,5,,,,2004,2014,"1275 Indiana Street, San Francisco, CA 94107",37.75462907,-122.3908484,1275 Indiana Street,San Francisco,CA,94107
33,Completed,Providence,1701,19th Avenue,94122,ON,On-Site BMR Project,Ownership,81,8,0,0,8,,,37758,1999,2001,"1701 19th Avenue, San Francisco, CA 94122",37.75595106,-122.4765897,1701 19th Avenue,San Francisco,CA,94122
237,First Const Doc Issued,1634-1690 Pine,1634-1690,Pine Street,94109,ON,On-Site BMR Project,Ownership,261,31,0,0,31,,,,2014,,"1634 Pine Street, San Francisco, CA 94109",37.78934778,-122.4228922,1634 Pine Street,San Francisco,CA,94109
287,Completed,Arc Light Co. (AKA 21 Clarence),178,Townsend Street,94107,ON,On-Site BMR Project,Rental,94,19,0,0,19,,,40914,2009,2012,"178 Townsend Street, San Francisco, CA 94107",37.77934367,-122.3921977,178 Townsend Street,San Francisco,CA,94107
19,Completed,788 Minna,121,09th Street,94103,ON,On-Site BMR Project,Ownership,18,2,0,0,2,,,40970,2005,2011,"121 9th Street, San Francisco, CA 94103",37.77589374,-122.4142409,121 9th Street,San Francisco,CA,94103
303,Completed,Symphony Towers,750,Van Ness Avenue,94102,ON,On-Site BMR Project,Ownership,130,16,0,0,16,,,39346,2002,2008,"750 Van Ness Avenue, San Francisco, CA 94102",37.78241681,-122.4206361,750 Van Ness Avenue,San Francisco,CA,94102
11,Entitled,119 - 7th Street,119,07th Street,94103,FEE,Fee BMR Project,Unknown,39,0,0,0,0,,,,2014,,"119 7th Street, San Francisco, CA 94103",37.77854972,-122.4100326,119 7th Street,San Francisco,CA,94103
84,Completed,Clipper Street,672-676 B,Clipper (aka 25th Street),94114,ON,On-Site BMR Project,Ownership,24,2,0,0,2,,,,1997,2001,"672 Clipper, San Francisco, CA 94114",37.74866733,-122.4399422,672 Clipper,San Francisco,CA,94114
66,Entitled,1433 Bush Street,1433,Bush Street,94109,FEE,Fee BMR Project,Unknown,32,0,0,0,0,,,,2014,,"1433 Bush Street, San Francisco, CA 94109",37.78858382,-122.4208861,1433 Bush Street,San Francisco,CA,94109
113,First Const Doc Issued,340 Fremont,340-350,Fremont Street,94105,FEE,Fee BMR Project,Unknown,348,,,,,,,,2006,,"340 Fremont Street, San Francisco, CA 94105",37.78739697,-122.392888,340 Fremont Street,San Francisco,CA,94105
134,Completed,2652 Harrison Street,2652,Harrison Street,94110,FEE,Fee BMR Project,Ownership,20,0,0,0,0,,,,2010,2013,"2652 Harrison Street, San Francisco, CA 94110",37.75512732,-122.4121541,2652 Harrison Street,San Francisco,CA,94110
295,Completed,Valencia 270,270-284,Valencia Street (aka 17 Brosnan St),94103,ON,On-Site BMR Project,Ownership,28,3,0,0,3,,,38607,2003,2006,"270 Valencia Street, San Francisco, CA 94103",37.76851683,-122.4222539,270 Valencia Street,San Francisco,CA,94103
130,First Const Doc Issued,400 Grove,400,Grove Street,94102,ON,On-Site BMR Project,Ownership,34,4,0,0,4,,,,2013,,"400 Grove Street, San Francisco, CA 94102",37.77778809,-122.4236228,400 Grove Street,San Francisco,CA,94102
8,Completed,Potrero Launch,2235,03rd Street,94107,ON,On-Site BMR Project,Rental,196,39,0,0,39,,,41162,2008,2012,"2235 3rd Street, San Francisco, CA 94107",37.76111457,-122.3884851,2235 3rd Street,San Francisco,CA,94107
50,Completed,Bayshore,2428,Bayshore Blvd.,94134,ON (FOR OFF-SITE),Units for Off-Site Project,Ownership,0,0,0,12,12,1635 California (6) and 680 Illinois (6),,38876,2005,2006,"2428 Bayshore Blvd., San Francisco, CA 94134",37.71084973,-122.4040743,2428 Bayshore Blvd,San Francisco,CA,94134
254,Completed,246 Ritch Street,246,Ritch Street,94107,FEE,Fee BMR Project,Ownership,19,0,0,0,0,,,,2010,2014,"246 Ritch Street, San Francisco, CA 94107",37.78029776,-122.3957076,246 Ritch Street,San Francisco,CA,94107
88,Completed,"Candlestick Point - The Cove,  Phase II",301-501,Crescent Way,94134,ON,On-Site BMR Project,Ownership,176,18,0,0,18,,,38891,2005,2007,"301 Crescent Way, San Francisco, CA 94134",37.71137287,-122.38856,301 Crescent Way,San Francisco,CA,94134
35,Completed,638 19th Street,638,19th Street,94107,ON,On-Site BMR Project,Ownership,18,2,0,0,2,,,40836,2002,2010,"638 19th Street, San Francisco, CA 94107",37.7617875,-122.3889909,638 19th Street,San Francisco,CA,94107
75,Entitled,376 Castro Street,376,Castro Street,94114,ON,On-Site BMR Project,Ownership,24,3,0,0,3,,,,2012,,"376 Castro Street, San Francisco, CA 94114",37.76297551,-122.4352435,376 Castro Street,San Francisco,CA,94114
214,Completed,1099 Mississippi,1099,Mississippi Street,94107,ON,On-Site BMR Project,Ownership,10,1,0,0,1,,,,1995,2004,"1099 Mississippi Street, San Francisco, CA 94107",37.75269485,-122.3936151,1099 Mississippi Street,San Francisco,CA,94107
231,Completed,1645 Pacific Avenue,1645,Pacific Avenue,94109,ON/FEE,Combination Project,Ownership,39,5,0,0,5,,,41928,2010,2014,"1645 Pacific Avenue, San Francisco, CA 94109",37.79490293,-122.4223656,1645 Pacific Avenue,San Francisco,CA,94109
177,Completed,Ritz Carlton,690,Market Street,94104,OFF-SITE,Off-Site BMR Project,Ownership,52,0,11,0,0,,938-942 Market Street (13/24 ownership units),,2004,2007,"690 Market Street, San Francisco, CA 94104",37.78806414,-122.4029785,690 Market Street,San Francisco,CA,94104
310,Entitled,2101-2155 Webster,2101-2155,Webster Street,94115,FEE,Fee BMR Project,Unknown,76,0,0,0,0,,,,2014,,"2101 Webster Street, San Francisco, CA 94115",37.79018319,-122.4324435,2101 Webster Street,San Francisco,CA,94115
252,Completed,"One Rincon, Phase I",1,Rincon Hill (aka 425 First Street - Tower One Only),94105,FEE,Fee BMR Project,Ownership,382,0,0,0,0,,,,2005,2008,"425 1st Street, San Francisco, CA 94105",37.7859255,-122.3926137,425 1st Street,San Francisco,CA,94105
268,Entitled,490 South Van Ness Avenue,490,South Van Ness Avenue,94103,ON,On-Site BMR Project,Ownership,72,12,0,0,12,,,,2014,,"490 South Van Ness Avenue, San Francisco, CA 94103",37.76548748,-122.4175537,490 South Van Ness Avenue,San Francisco,CA,94103
151,Completed,Gantry,740,Illinois Street (and 2121 3rd Street),94107,ON,On-Site BMR Project,Rental,105,18,0,0,18,,,41842,2011,2014,"740 Illinois Street, San Francisco, CA 94107",37.76215739,-122.3877638,740 Illinois Street,San Francisco,CA,94107
131,Completed,300 Ivy,401,Grove Street,94102,ON,On-Site BMR Project,Ownership,63,9,0,0,9,,,41544,2011,2013,"401 Grove Street, San Francisco, CA 94102",37.77773278,-122.4235767,401 Grove Street,San Francisco,CA,94102
85,BP Issued,1255-1275 Columbus,1255-1275,Columbus Avenue,94133,FEE,Fee BMR Project,Unknown,20,0,0,0,0,,,,2011,,"1255 Columbus Avenue, San Francisco, CA 94133",37.80577338,-122.4181088,1255 Columbus Avenue,San Francisco,CA,94133
41,Completed,3418 26th Street,3418,26th Street,94110,FEE,Fee BMR Project,Rental,11,0,0,0,0,,,,2011,2014,"3418 26th Street, San Francisco, CA 94110",37.74903751,-122.4189606,3418 26th Street,San Francisco,CA,94110
115,Completed,733 Front Street,733,Front Street,94111,FEE,Fee BMR Project,Unknown,69,0,0,0,0,,,,2005,2007,"733 Front Street, San Francisco, CA 94111",37.79808323,-122.3997429,733 Front Street,San Francisco,CA,94111
191,Completed,Venn,1844,Market Street,94102,ON,On-Site BMR Project,Rental,113,14,0,0,14,,,41596,2006,2013,"1844 Market Street, San Francisco, CA 94102",37.77128346,-122.4242577,1844 Market Street,San Francisco,CA,94102
311,Completed,Glen Park Marketplace,53,Wilder Street,94131,ON,On-Site BMR Project,Ownership,15,2,0,0,2,,,38874,2002,2006,"53 Wilder Street, San Francisco, CA 94131",37.73414311,-122.4334944,53 Wilder Street,San Francisco,CA,94131
289,BP Issued,1050 Valencia Street,1050-1058,Valencia Street,94110,FEE,Fee BMR Project,Ownership,12,2,0,0,2,,,,2012,,"1050 Valencia Street, San Francisco, CA 94110",37.75595696,-122.4210636,1050 Valencia Street,San Francisco,CA,94110
81,Completed,470 Clementina,470,Clementina Street,94103,ON,On-Site BMR Project,Ownership,12,1,0,0,1,,,38573,2005,2005,"470 Clementina Street, San Francisco, CA 94103",37.77948425,-122.4055377,470 Clementina Street,San Francisco,CA,94103
219,Completed,537 Natoma Street,537,Natoma Street,94103,ON,On-Site BMR Project,Ownership,13,1,0,0,1,,,41562,2011,2013,"537 Natoma Street, San Francisco, CA 94103",37.77946696,-122.4085313,537 Natoma Street,San Francisco,CA,94103
300,Completed,77 Van Ness Avenue,77,Van Ness Avenue,94103,ON,On-Site BMR Project,Ownership,50,6,0,0,6,,,40059,2002,2009,"77 Van Ness Avenue, San Francisco, CA 94103",37.77372054,-122.4187867,77 Van Ness Avenue,San Francisco,CA,94103
107,Completed,Yerba Buena Lofts,855,Folsom Street,94107,ON,On-Site BMR Project,Ownership,200,20,0,0,20,,,37976,1999,2002,"855 Folsom Street, San Francisco, CA 94107",37.78079785,-122.4027008,855 Folsom Street,San Francisco,CA,94107
152,BP Issued,650 Indiana,650,Indiana Street,94107,ON,On-Site BMR Project,Rental,111,16,0,0,16,,,,2014,,"650 Indiana Street, San Francisco, CA 94107",37.7622564,-122.3916381,650 Indiana Street,San Francisco,CA,94107
247,Entitled,1731 Powell Street,1731,Powell Street,94133,FEE,Fee BMR Project,Unknown,19,0,0,0,0,,,,2013,,"1731 Powell Street, San Francisco, CA 94133",37.80070467,-122.4109534,1731 Powell Street,San Francisco,CA,94133
161,Entitled,180 Jones Street / 181 Turk Street,180,Jones Street,94102,ON,On-Site BMR Project,Unknown,37,4,0,0,4,,,,2009,,"180 Jones Street, San Francisco, CA 94102",37.78278784,-122.4123362,180 Jones Street,San Francisco,CA,94102
290,First Const Doc Issued,899 Valencia Street,899,Valencia Street,94110,FEE,Fee BMR Project,Unknown,18,0,0,0,0,,,,2011,,"899 Valencia Street, San Francisco, CA 94110",37.75873396,-122.4212445,899 Valencia Street,San Francisco,CA,94110
209,Completed,2200 Mission Street,2200,Mission Street,94110,ON,On-Site BMR Project,Ownership,23,3,0,0,3,,,39786,2001,2009,"2200 Mission Street, San Francisco, CA 94110",37.76162734,-122.4193835,2200 Mission Street,San Francisco,CA,94110
302,Completed,Marlow,1800,Van Ness Avenue,94109,ON,On-Site BMR Project,Ownership,98,15,0,0,15,,,41617,2011,2014,"1800 Van Ness Avenue, San Francisco, CA 94109",37.79235754,-122.4226157,1800 Van Ness Avenue,San Francisco,CA,94109
281,Entitled,815-825 Tennessee,815-825,Tennessee Street,94107,ON,On-Site BMR Project,Ownership,69,10,0,0,10,,,,2014,,"815 Tennessee Street, San Francisco, CA 94107",37.76149367,-122.3895544,815 Tennessee Street,San Francisco,CA,94107
185,Completed,"NEMA, Phase II (North Tower)",1407-1435,Market Street,94103,ON,On-Site BMR Project,Rental,437,52,0,0,52,,,41799,2007,2014,"1407 Market Street, San Francisco, CA 94103",37.77640353,-122.4176405,1407 Market Street,San Francisco,CA,94103
4,Entitled,2051 3rd Street,2051,03rd Street,94107,ON,On-Site BMR Project,Rental,93,12,0,0,12,,,,2014,,"2051 3rd Street, San Francisco, CA 94107",37.76376252,-122.3886844,2051 3rd Street,San Francisco,CA,94107
279,Entitled,41 Tehama,41,Tehama Street,94105,ON,On-Site BMR Project,Ownership,325,49,0,0,49,,,,2012,,"41 Tehama Street, San Francisco, CA 94105",37.78735779,-122.3963909,41 Tehama Street,San Francisco,CA,94105
274,Completed,2000 Post III,2161,Sutter Street,94115,ON,On-Site BMR Project,Rental,24,3,0,0,3,,,39658,2003,2007,"2161 Sutter Street, San Francisco, CA 94115",37.78573307,-122.4358761,2161 Sutter Street,San Francisco,CA,94115
46,Completed,USF - Loyola Village,600,Anza Blvd,94118,ON,On-Site BMR Project,Rental,136,17,0,0,17,,,,1997,2002,"600 Anza Blvd, San Francisco, CA 94118",37.78038227,-122.4529879,600 Anza Blvd,San Francisco,CA,94118
245,Entitled,346 Potrero,346,Potrero Avenue,94103,ON,On-Site BMR Project,Rental,70,11,0,0,11,,,,2014,,"346 Potrero Avenue, San Francisco, CA 94103",37.76515678,-122.4075242,346 Potrero Avenue,San Francisco,CA,94103
168,First Const Doc Issued,1601 Larkin Street,1601,Larkin Street,94109,FEE,Fee BMR Project,Unknown,27,0,0,0,0,,,,2013,,"1601 Larkin Street, San Francisco, CA 94109",37.79281385,-122.419493,1601 Larkin Street,San Francisco,CA,94109
172,Completed,Magnolia Place,1888,Lombard Street,94123,ON,On-Site BMR Project,Rental,27,3,0,0,3,,,,1999,2001,"1888 Lombard Street, San Francisco, CA 94123",37.80032787,-122.4324435,1888 Lombard Street,San Francisco,CA,94123
24,Completed,2421 16th Street,2401,16th Street,94103,ON,On-Site BMR Project,Ownership,12,1,0,0,1,,,42073,2011,2014,"2401 16th Street, San Francisco, CA 94103",37.76555316,-122.4107783,2401 16th Street,San Francisco,CA,94103
182,First Const Doc Issued,2175 Market Street,2175,Market Street,94114,ON,On-Site BMR Project,Rental,88,13,0,0,13,,,,2012,,"2175 Market Street, San Francisco, CA 94114",37.76639778,-122.4301804,2175 Market Street,San Francisco,CA,94114
122,Completed,118 Wood Street,2743-2761,Geary Blvd.,94103,ON,On-Site BMR Project,Rental,22,2,0,0,2,,,,1998,1999,"2743 Geary Blvd., San Francisco, CA 94118",37.78214372,-122.4487356,2743 Geary Blvd,San Francisco,CA,94118
119,Completed,6900 Geary Blvd,6900,Geary Blvd. (aka 499 33rd Ave.),94121,ON,On-Site BMR Project,Rental,17,2,0,0,2,,,,2000,2004,"6900 Geary Blvd., San Francisco, CA 94121",37.77971816,-122.4936608,6900 Geary Blvd,San Francisco,CA,94121
89,Entitled,San Francisco Overlook,599,Crestmont Drive,94131,FEE,Fee BMR Project,Unknown,34,0,0,0,0,,,,2013,,"599 Crestmont Drive, San Francisco, CA 94131",37.75893848,-122.4594455,599 Crestmont Drive,San Francisco,CA,94131
61,First Const Doc Issued,1622-1650 Broadway,1622-1650,Broadway Blvd,94109,FEE,Fee BMR Project,Unknown,34,0,0,0,0,,,,2009,2015,"1622 Broadway Blvd, San Francisco, CA 94109",37.7956635,-122.4242431,1622 Broadway Blvd,San Francisco,CA,94109
127,Entitled,300 Grant Avenue / 272 & 290 Sutter Street,300,Grant Avenue,94108,FEE,Fee BMR Project,Unknown,45,0,0,0,0,,,,2008,,"300 Grant Avenue, San Francisco, CA 94108",37.78987668,-122.405396,300 Grant Avenue,San Francisco,CA,94108
58,BP Issued,801 Brannan,801,Brannan Street,94103,LAND DED/ON,Combination Project,Rental,432,55,0,0,55,,,,2013,,"801 Brannan Street, San Francisco, CA 94103",37.77296964,-122.4032671,801 Brannan Street,San Francisco,CA,94103
80,First Const Doc Issued,468 Clementina,468,Clementina Street,94103,FEE,Fee BMR Project,Unknown,25,0,0,0,0,,,,2013,,"468 Clementina Street, San Francisco, CA 94103",37.77956376,-122.4054375,468 Clementina Street,San Francisco,CA,94103
52,Completed,Embarcadero Lofts,300,Beale Street,94105,ON,On-Site BMR Project,Ownership,67,6,0,0,6,,,,1995,1998,"300 Beale Street, San Francisco, CA 94105",37.78835797,-122.392328,300 Beale Street,San Francisco,CA,94105
285,Completed,310 Townsend,310,Townsend Street,94107,FEE,Fee BMR Project,Ownership,45,0,0,0,0,,,,2005,2007,"310 Townsend Street, San Francisco, CA 94107",37.77681326,-122.395408,310 Townsend Street,San Francisco,CA,94107
159,Completed,410 Jessie Street,410,Jessie Street,94103,ON,On-Site BMR Project,Ownership,24,2,0,0,2,,,39637,2005,2007,"410 Jessie Street, San Francisco, CA 94103",37.78301369,-122.4075888,410 Jessie Street,San Francisco,CA,94103
116,First Const Doc Issued,344 Fulton,344,Fulton Street,94102,ON,On-Site BMR Project,Rental,69,8,0,0,8,,,,2013,,"344 Fulton Street, San Francisco, CA 94102",37.77878827,-122.4232229,344 Fulton Street,San Francisco,CA,94102
270,Entitled,1 Stanyan,1,Stanyan Street,94118,FEE,Fee BMR Project,Unknown,13,0,0,0,0,,,,2008,,"1 Stanyan Street, San Francisco, CA 94118",37.78123115,-122.4563058,1 Stanyan Street,San Francisco,CA,94118
7,Completed,4343 3rd Street,4343,03rd Street,94124,ON,On-Site BMR Project,Ownership,16,2,0,0,2,,,,2003,2007,"4343 3rd Street, San Francisco, CA 94124",37.7381496,-122.3893977,4343 3rd Street,San Francisco,CA,94124
248,Completed,Lofts@One Powell (10 Cyril Magnin),1,Powell Street,94102,ON,On-Site BMR Project,Rental,40,4,0,0,4,,,38457,2003,2005,"1 Powell Street, San Francisco, CA 94102",37.78473404,-122.4077029,1 Powell Street,San Francisco,CA,94102
136,Completed,870 Harrison Street,870,Harrison Street,94107,ON,On-Site BMR Project,Ownership,26,4,0,0,4,,,42046,2009,,"870 Harrison Street, San Francisco, CA 94107",37.77960409,-122.4012178,870 Harrison Street,San Francisco,CA,94107
212,Completed,SOMA Grand,1160,Mission Street,94103,ON,On-Site BMR Project,Ownership,246,29,0,0,29,NA,,39658,2003,2008,"1160 Mission Street, San Francisco, CA 94103",37.77823402,-122.4122279,1160 Mission Street,San Francisco,CA,94103
74,First Const Doc Issued,Habitat Terrace,1,Capitol Avenue,94112,ON (FOR OFF-SITE),Units for Off-Site Project,Ownership,11,0,0,17,17,800 Brotherhood Way (17 units),,,2010,,"1 Capitol Avenue, San Francisco, CA 94112",37.71090027,-122.4590506,1 Capitol Avenue,San Francisco,CA,94112
123,Completed,1828 Geneva,1828,Geneva Avenue,94134,ON,On-Site BMR Project,Rental,48,6,0,0,6,,,,2002,2008,"1828 Geneva Avenue, San Francisco, CA 94134",37.71001779,-122.4245193,1828 Geneva Avenue,San Francisco,CA,94134
278,Completed,723 Taylor Street,723,Taylor Street,94108,ON,On-Site BMR Project,Ownership,12,1,0,0,1,,,40605,2006,2010,"723 Taylor Street, San Francisco, CA 94108",37.78922333,-122.4119928,723 Taylor Street,San Francisco,CA,94108
228,Completed,OceanView Terrace,8100,Oceanview Terrace,94132,ON,On-Site BMR Project,Ownership,15,2,0,0,2,,,,2002,2003,"8100 Oceanview Terrace, San Francisco, CA 94132",37.70990602,-122.4674418,8100 Oceanview Terrace,San Francisco,CA,94132
10,Completed,Mosso,260,05th Street,94103,ON,On-Site BMR Project,Rental,181,27,0,0,27,,,41864,2010,2014,"260 5th Street, San Francisco, CA 94103",37.78081744,-122.4040881,260 5th Street,San Francisco,CA,94103
34,Completed,3500 19th Street,3500,19th Street,94110,FEE,Fee BMR Project,Unknown,17,0,0,0,0,,,,2008,2012,"3500 19th Street, San Francisco, CA 94110",37.76011785,-122.4217411,3500 19th Street,San Francisco,CA,94110
165,Completed,The Lansing,40-50,Lansing (aka 50 Lansing or 40 Lansing),94105,ON,On-Site BMR Project,Ownership,82,10,0,0,10,,,38747,2003,2006,"40 Lansing St., San Francisco, CA 94105",37.78603382,-122.3940587,40 Lansing St,San Francisco,CA,94105
294,Completed,Carlin Senior Apartments,286,Valencia Street,94103,ON,On-Site BMR Project,Rental,36,4,0,0,4,,,,1998,2000,"286 Valencia Street, San Francisco, CA 94103",37.7683267,-122.4222343,286 Valencia Street,San Francisco,CA,94103
188,Completed,Garfield Building,938-942,Market Street,94102,ON/ON (FOR OFF-SITE),Combination Project,Ownership,15,2,0,11,13,690 Market St. (11 units),,39303,2004,2007,"938 Market Street, San Francisco, CA 94102",37.78353452,-122.4087169,938 Market Street,San Francisco,CA,94102
40,Completed,3930 24th Street,3922-32,24th Street,94114,ON,On-Site BMR Project,Rental,19,2,0,0,2,,,,1995,2003,"3922 24th Street, San Francisco, CA 94114",37.75155755,-122.4302807,3922 24th Street,San Francisco,CA,94114
97,Completed,149 Fair Oaks,149,Fair Oaks,94110,ON,On-Site BMR Project,Rental,12,1,0,0,1,,,,2001,2002,"149 Fair Oaks, San Francisco, CA 94110",37.74525742,-122.4189652,149 Fair,San Francisco,CA,94110
230,Completed,1355 Pacific Avenue,1355,Pacific Avenue,94109,ON,On-Site BMR Project,Ownership,23,2,0,0,2,,,40486,2008,2010,"1355 Pacific Avenue, San Francisco, CA 94109",37.79552286,-122.417586,1355 Pacific Avenue,San Francisco,CA,94109
147,Completed,1945 Hyde Street,1945,Hyde Street,94109,FEE,Fee BMR Project,Unknown,7,0,0,0,0,,,,2011,2014,"1945 Hyde Street, San Francisco, CA 94109",37.79886448,-122.4190229,1945 Hyde Street,San Francisco,CA,94109
51,Completed,BaySide Vista,2011,Bayshore Blvd.,94134,ON,On-Site BMR Project,Ownership,64,6,0,0,6,,,39974,2007,2009,"2011 Bayshore Blvd., San Francisco, CA 94134",37.71512585,-122.3989006,2011 Bayshore Blvd,San Francisco,CA,94134
255,First Const Doc Issued,2895 San Bruno Avenue,2895,San Bruno Avenue,94134,ON,On-Site BMR Project,Ownership,10,1,0,0,1,,,,2013,,"2895 San Bruno Avenue, San Francisco, CA 94134",37.72546413,-122.4026685,2895 San Bruno Avenue,San Francisco,CA,94134
198,Completed,900 Minnesota,900,Minnesota Street,94107,FEE,Fee BMR Project,Ownership,142,0,0,0,0,,,,2005,2010,"900 Minnesota Street, San Francisco, CA 94107",37.75911886,-122.390365,900 Minnesota Street,San Francisco,CA,94107
291,Completed,222 Valencia Street,222,Valencia Street,94103,ON,On-Site BMR Project,Ownership,10,1,0,0,1,,,,2002,2003,"222 Valencia Street, San Francisco, CA 94103",37.76945709,-122.4223645,222 Valencia Street,San Francisco,CA,94103
111,Completed,333 Fremont Street,333,Fremont Street,94105,FEE,Fee BMR Project,Rental,83,0,0,0,0,,,,2005,2014,"333 Fremont Street, San Francisco, CA 94105",37.78745343,-122.3928707,333 Fremont Street,San Francisco,CA,94105
186,Completed,"Trinity Plaza Apartments, Phase II",1167,Market Street,94103,ON,On-Site BMR Project,Rental,418,63,0,0,63,,,41393,2006,2013,"1167 Market Street, San Francisco, CA 94103",37.77922755,-122.4140445,1167 Market Street,San Francisco,CA,94103
238,Completed,725 Pine Street,725,Pine Street,94108,ON,On-Site BMR Project,Ownership,22,2,0,0,2,,,39290,2006,2007,"725 Pine Street, San Francisco, CA 94108",37.79123291,-122.4077351,725 Pine Street,San Francisco,CA,94108
225,Entitled,1490 Ocean,1490,Ocean Avenue,94112,FEE,Fee BMR Project,Unknown,13,0,0,0,0,,,,2013,,"1490 Ocean Avenue, San Francisco, CA 94112",37.72429802,-122.457993,1490 Ocean Avenue,San Francisco,CA,94112
82,Completed,69 Clementina,69,Clementina Street,94105,ON,On-Site BMR Project,Ownership,18,2,0,0,2,,,38747,2003,2005,"69 Clementina Street, San Francisco, CA 94105",37.78650741,-122.3965315,69 Clementina Street,San Francisco,CA,94105
203,First Const Doc Issued,1400 Mission Street,1400,Mission Street,94103,ON (FOR OFF-SITE),Units for Off-Site Project,Ownership,23,3,0,164,167,201 Folsom (164 untis),,,2013,,"1400 Mission Street, San Francisco, CA 94103",37.77523922,-122.4160105,1400 Mission Street,San Francisco,CA,94103
184,Completed,"NEMA, Phase I (South & North Tower)",1407-1435,Market Street,94103,ON,On-Site BMR Project,Rental,317,38,0,0,38,,,41527,2007,2013,"1407 Market Street, San Francisco, CA 94103",37.77640353,-122.4176405,1407 Market Street,San Francisco,CA,94103
90,Completed,100 Diana,100,Diana Street,94124,ON,On-Site BMR Project,Ownership,18,3,0,0,3,,,,1991,1996,"100 Diana Street, San Francisco, CA 94124",37.73032859,-122.3963012,100 Diana Street,San Francisco,CA,94124
86,Completed,55 Trumbell,4,Craut Street,94112,ON,On-Site BMR Project,Rental,18,2,0,0,2,,,,2005,2011,"4 Craut Street, San Francisco, CA 94112",37.73076693,-122.428414,4 Craut Street,San Francisco,CA,94112
275,Completed,Blanc,1080,Sutter Street,94109,ON,On-Site BMR Project,Ownership,35,4,0,0,4,,,41730,2009,2014,"1080 Sutter Street, San Francisco, CA 94109",37.78805838,-122.4180123,1080 Sutter Street,San Francisco,CA,94109
187,Completed,1600 Market,1600,Market Street,94102,ON (FOR OFF-SITE),Units for Off-Site Project,Ownership,24,0,0,23,23,1998 Market (23 units),,41577,2011,2014,"1600 Market Street, San Francisco, CA 94102",37.77389453,-122.4209172,1600 Market Street,San Francisco,CA,94102
9,Completed,The Palms,555-557,04th Street,94107,OFF-SITE,Off-Site BMR Project,Ownership,300,0,56,0,0,,785 Brannan Street (56 rental units),,2003,2007,"555 4th Street, San Francisco, CA 94107",37.77894383,-122.3972609,555 4th Street,San Francisco,CA,94107
192,Completed,125 Mason,125,Mason Street,94102,ON (FOR OFF-SITE),Units for Off-Site Project,Rental,0,0,0,81,81,301 Mission (Millennium Tower) (80 units),,39660,2006,2008,"125 Mason Street, San Francisco, CA 94102",37.78477437,-122.4094036,125 Mason Street,San Francisco,CA,94102
38,Completed,616 20th Street,616,20th Street,94107,ON,On-Site BMR Project,Ownership,16,2,0,0,2,,,41753,2011,2013,"616 20th Street, San Francisco, CA 94107",37.76055802,-122.3879424,616 20th Street,San Francisco,CA,94107
227,Completed,Avalon Ocean Avenue,1150,Ocean Avenue,94112,ON,On-Site BMR Project,Rental,173,26,0,0,26,,,41031,2009,2012,"1150 Ocean Avenue, San Francisco, CA 94112",37.72372764,-122.4551239,1150 Ocean Avenue,San Francisco,CA,94112
44,Completed,Mosaica 601,601,Alabama Street,94110,ON,On-Site BMR Project,Ownership,34,21,0,0,21,,,39701,2005,2009,"601 Alabama Street, San Francisco, CA 94110",37.76099358,-122.4119248,601 Alabama Street,San Francisco,CA,94110
71,Completed,2829 California,2829,California  Street,94115,ON,On-Site BMR Project,Ownership,13,2,0,0,2,,,41250,2008,2012,"2829 California Street, San Francisco, CA 94115",37.78797311,-122.4410361,2829 California Street,San Francisco,CA,94115
110,First Const Doc Issued,181 Fremont,181,Fremont Street,94105,FEE,Fee BMR Project,Ownership,74,0,0,0,0,,,,2012,,"181 Fremont Street, San Francisco, CA 94105",37.78959437,-122.3955405,181 Fremont Street,San Francisco,CA,94105
207,Completed,Mission Valencia (FNA Valencia Triangle),3184,Mission Street,94110,ON,On-Site BMR Project,Ownership,20,2,0,0,2,,,40052,2004,2006,"3184 Mission Street, San Francisco, CA 94110",37.7461568,-122.4195667,3184 Mission Street,San Francisco,CA,94110
288,Completed,170 Off Third,177,Townsend Street (aka 170 King Street),94107,ON,On-Site BMR Project,Ownership,198,24,0,0,24,,,39087,2003,2007,"177 Townsend Street, San Francisco, CA 94107",37.77933676,-122.3921113,177 Townsend Street,San Francisco,CA,94107
210,Completed,The Bouganvillea,5810,Mission Street,94112,ON,On-Site BMR Project,Ownership,27,3,0,0,3,,,,1992,1998,"5810 Mission Street, San Francisco, CA 94112",37.70925728,-122.4514677,5810 Mission Street,San Francisco,CA,94112
195,Completed,68 McCoppin,68,McCoppin Street,94103,ON,On-Site BMR Project,Ownership,12,1,0,0,1,,,,2002,1996,"68 McCoppin Street, San Francisco, CA 94103",37.77166832,-122.4217906,68 McCoppin Street,San Francisco,CA,94103
166,First Const Doc Issued,45 Lansing,45,Lansing Street,94105,FEE,Fee BMR Project,Unknown,320,0,0,0,0,,,,2011,,"45 Lansing Street, San Francisco, CA 94105",37.78604765,-122.3939504,45 Lansing Street,San Francisco,CA,94105
137,Completed,3000 23rd Street,2690,Harrison Street,94110,ON,On-Site BMR Project,Rental,54,7,0,0,7,,,,2003,2006,"2690 Harrison Street, San Francisco, CA 94110",37.75451776,-122.4121034,2690 Harrison Street,San Francisco,CA,94110
202,First Const Doc Issued,1321 Mission Street/104 - 9th Street,1321,Mission Street,94103,ON,On-Site BMR Project,Rental,80,10,0,0,10,,,,2013,,"1321 Mission Street, San Francisco, CA 94103",37.77603452,-122.4149193,1321 Mission Street,San Francisco,CA,94103
25,First Const Doc Issued,Daggett Triangle,1000,16th Street,94107,ON,On-Site BMR Project,Rental,470,94,0,0,94,,,,2011,,"1000 16th Street, San Francisco, CA 94107",37.76645244,-122.3969926,1000 16th Street,San Francisco,CA,94107
223,Completed,Portola Place,2601,"Newhall, Armstrong, Orsi, Williams, Lydia, Bitting, Kalmanovitz",94124,ON,On-Site BMR Project,Ownership,259,24,0,0,24,,,,1992,1996,"2601 Newhall Street, San Francisco, CA 94124",37.729169,-122.397833,,,,
3,Entitled,2290 3rd Street,2290,03rd Street,94107,FEE,Fee BMR Project,Ownership,71,0,0,0,0,,,,2013,,"2290 3rd Street, San Francisco, CA 94107",37.76079769,-122.388734,2290 3rd Street,San Francisco,CA,94107
14,Completed,1266 9th Avenue,1266,09th Avenue,94122,FEE,Fee BMR Project,Unknown,15,0,0,0,0,,,,2008,2014,"1266 9th Avenue, San Francisco, CA 94122",37.7645622,-122.4663148,1266 9th Avenue,San Francisco,CA,94122
68,Completed,The Midtown,1452,Bush Street,94109,ON,On-Site BMR Project,Ownership,22,2,0,0,2,,,,2001,2004,"1452 Bush Street, San Francisco, CA 94109",37.78859765,-122.4212329,1452 Bush Street,San Francisco,CA,94109
55,Completed,Bridgeview,400,Beale Street,94105,ON,On-Site BMR Project,Ownership,245,24,0,0,24,,,,1997,2003,"400 Beale Street, San Francisco, CA 94105",37.78705705,-122.3907078,400 Beale Street,San Francisco,CA,94105
98,Completed,280 Fell / 300 Gough,280,Fell Street,94102,ON,On-Site BMR Project,Rental,34,4,0,0,4,,,,1998,2000,"280 Fell Street, San Francisco, CA 94102",37.77601819,-122.4224325,280 Fell Street,San Francisco,CA,94102
154,Completed,Millwheel South,1275-1301,Indiana Street,94107,ON,On-Site BMR Project,Ownership,32,4,0,0,4,,,41110,2004,2012,"1275 Indiana Street, San Francisco, CA 94107",37.75462907,-122.3908484,1275 Indiana Street,San Francisco,CA,94107
28,Completed,The Valencia @ 17th (AKA 601 Valencia),3371,17th Street,94110,ON,On-Site BMR Project,Ownership,25,2,0,0,2,,,37858,2000,2003,"3371 17th Street, San Francisco, CA 94110",37.76329354,-122.4213078,3371 17th Street,San Francisco,CA,94110
149,Completed,168 Hyde Street,168,Hyde Street,94102,ON,On-Site BMR Project,Ownership,31,3,0,0,3,,,,2008,2008,"168 Hyde Street, San Francisco, CA 94102",37.78235804,-122.4156064,168 Hyde Street,San Francisco,CA,94102
272,Completed,1285 Sutter Street,1285,Sutter Street,94109,FEE,Fee BMR Project,Unknown,107,0,0,0,0,,,,2008,2013,"1285 Sutter Street, San Francisco, CA 94109",37.78758364,-122.4212364,1285 Sutter Street,San Francisco,CA,94109
5,First Const Doc Issued,5800 Third Street - Building 3,5800,03rd Street,94124,ON,On-Site BMR Project,Ownership,150,23,0,0,23,,,,2012,,"5800 3rd Street, San Francisco, CA 94124",37.72488453,-122.3946798,5800 3rd Street,San Francisco,CA,94124
273,Completed,1158 Sutter Street,1158,Sutter Street,94109,ON,On-Site BMR Project,Ownership,14,2,0,0,2,,,40702,2005,2008,"1158 Sutter Street, San Francisco, CA 94109",37.78785788,-122.4195529,1158 Sutter Street,San Francisco,CA,94109
267,Entitled,793 South Van Ness Avenue,793,South Van Ness Avenue,94110,ON,On-Site BMR Project,Unknown,29,3,0,0,3,,,,2008,,"793 South Van Ness Avenue, San Francisco, CA 94110",37.76065366,-122.4170548,793 South Van Ness Avenue,San Francisco,CA,94110
128,Completed,Landmark Union Sq.,333,Grant Avenue,94108,ON,On-Site BMR Project,Ownership,39,2,0,0,2,,,38085,2003,2004,"333 Grant Avenue, San Francisco, CA 94108",37.79021545,-122.4055239,333 Grant Avenue,San Francisco,CA,94108
36,Completed,Chelsea Park,3620,19th Street,94110,ON,On-Site BMR Project,Ownership,39,5,0,0,5,,,39821,2001,2008,"3620 19th Street, San Francisco, CA 94110",37.75997842,-122.4242104,3620 19th Street,San Francisco,CA,94110
183,Completed,"Trinity Plaza Apartments, Phase I",1167,Market Street,94103,ON,On-Site BMR Project,Rental,440,12,0,0,12,,,40274,2006,2009,"1167 Market Street, San Francisco, CA 94103",37.77922755,-122.4140445,1167 Market Street,San Francisco,CA,94103
211,Completed,Tiffany Gardens,3249,Mission Street,94110,ON,On-Site BMR Project,Rental,33,3,0,0,3,,,,2001,2004,"3249 Mission Street, San Francisco, CA 94110",37.74486279,-122.420333,3249 Mission Street,San Francisco,CA,94110
76,Completed,555 Bartlett,3400,Cesar Chavez Street,94110,ON,On-Site BMR Project,Ownership,58,9,0,0,9,,,40268,2007,2010,"3400 Cesar Chavez Street, San Francisco, CA 94110",37.74819749,-122.41832,3400 Cesar Chavez Street,San Francisco,CA,94110
140,Entitled,580 Hayes Street,580,Hayes Street,94102,FEE,Fee BMR Project,Unknown,29,0,0,0,0,,,,2014,,"580 Hayes Street, San Francisco, CA 94102",37.77652749,-122.4259827,580 Hayes Street,San Francisco,CA,94102
67,First Const Doc Issued,2655 Bush Street,2655,Bush Street,94115,FEE,Fee BMR Project,Unknown,81,0,0,0,0,,,,2009,,"2655 Bush Street, San Francisco, CA 94115",37.78605341,-122.4408252,2655 Bush Street,San Francisco,CA,94115
304,Entitled,2601 Van Ness Avenue,2601,Van Ness Avenue,94109,FEE,Fee BMR Project,Unknown,27,0,0,0,0,,,,2014,,"2601 Van Ness Avenue, San Francisco, CA 94109",37.79971486,-122.4243234,2601 Van Ness Avenue,San Francisco,CA,94109
27,First Const Doc Issued,1001 17th Street (aka 140 Pennsylvania Avenue),1001,17th Street,94107,ON,On-Site BMR Project,Ownership,37,5,0,0,5,,,,2013,,"1001 17th Street, San Francisco, CA 94107",37.76526279,-122.3941474,1001 17th Street,San Francisco,CA,94107
171,Completed,3208 Pierce,2298,Lombard Street,94123,ON,On-Site BMR Project,Ownership,14,1,0,0,1,,,39213,2004,2007,"2298 Lombard Street, San Francisco, CA 94123",37.79947749,-122.4390933,2298 Lombard Street,San Francisco,CA,94123
91,Completed,200 Dolores Street,200,Dolores Street,94103,FEE,Fee BMR Project,Unknown,11,0,0,0,0,,,,2010,2013,"200 Dolores Street, San Francisco, CA 94103",37.76608667,-122.4266141,200 Dolores Street,San Francisco,CA,94103
100,Completed,829 Folsom,829,Folsom Street,94107,FEE,Fee BMR Project,Unknown,69,0,0,0,0,,,,2004,2009,"829 Folsom Street, San Francisco, CA 94107",37.78140741,-122.4019207,829 Folsom Street,San Francisco,CA,94107
96,Completed,Candlestick Cove - Building B,NA,Executive Park St. Francis Bay Phase III,94124,FEE,Fee BMR Project,Unknown,98,0,0,0,0,,,,2005,2009,"101 Executive Park Blvd., San Francisco, CA 94134",37.71112974,-122.3948186,101 Executive Park Blvd,San Francisco,CA,94134
244,First Const Doc Issued,480 Potrero,480,Potrero,94110,ON,On-Site BMR Project,Rental,75,11,0,0,11,,,,2013,,"480 Potrero, San Francisco, CA 94110",37.76348827,-122.407394,480 Potrero,San Francisco,CA,94110
117,First Const Doc Issued,555 Fulton Street,555,Fulton Street,94102,ON,On-Site BMR Project,Ownership,139,17,0,0,17,,,,2013,,"555 Fulton Street, San Francisco, CA 94102",37.77840341,-122.4258156,555 Fulton Street,San Francisco,CA,94102
249,Completed,Northpoint Apartments,2351,Powell Street,94133,ON,On-Site BMR Project,Rental,72,9,0,0,9,,,39331,2004,2006,"2351 Powell Street, San Francisco, CA 94133",37.80629324,-122.4120631,2351 Powell Street,San Francisco,CA,94133
13,BP Issued,350 8th Street,350,08th Street,94103,ON,On-Site BMR Project,Rental,416,62,0,0,62,,,,2012,,"350 8th Street, San Francisco, CA 94103",37.77418721,-122.4090787,350 8th Street,San Francisco,CA,94103
135,Completed,Harbor Lofts (AKA 400 Spear),101,Harrison Street,94105,ON,On-Site BMR Project,Ownership,12,2,0,0,2,,,,1995,2003,"101 Harrison Street, San Francisco, CA 94105",37.78860686,-122.3896812,101 Harrison Street,San Francisco,CA,94105
20,Completed,480 14th Street,480,14th Street,94103,ON,On-Site BMR Project,Ownership,12,1,0,0,1,,,,2006,2009,"480 14th Street, San Francisco, CA 94103",37.76807781,-122.4239108,480 14th Street,San Francisco,CA,94103
213,Completed,Vara,1880-1886,Mission Street,94103,ON,On-Site BMR Project,Rental,202,40,0,0,40,,,41407,2009,2013,"1880 Mission Street, San Francisco, CA 94103",37.76716751,-122.4199044,1880 Mission Street,San Francisco,CA,94103
83,Completed,436 Clementina,436,Clementina Street,94103,ON,On-Site BMR Project,Rental,20,3,0,0,3,,,39984,2003,2008,"436 Clementina Street, San Francisco, CA 94103",37.78004426,-122.4048371,436 Clementina Street,San Francisco,CA,94103
253,Completed,"One Rincon, Phase II",1,Rincon Hill (aka 425 First/401Harrison St),94105,FEE,Fee BMR Project,Unknown,298,0,0,0,0,,,,2005,2014,"401 Harrison Street, San Francisco, CA 94105",37.78656733,-122.3923015,401 Harrison Street,San Francisco,CA,94105
104,First Const Doc Issued,Lumina,201,Folsom Street,94105,OFF-SITE,Off-Site BMR Project,Ownership,725,0,164,0,0,,10th & Mission Street (164/190 ownership units),,2009,,"201 Folsom Street, San Francisco, CA 94105",37.78904704,-122.3922611,201 Folsom Street,San Francisco,CA,94105
174,Completed,ICON,2299,Market Street,94114,FEE,Fee BMR Project,Unknown,18,0,0,0,0,,,,2010,2013,"2299 Market Street, San Francisco, CA 94114",37.76419808,-122.4329597,2299 Market Street,San Francisco,CA,94114
305,First Const Doc Issued,100 Van Ness Avenue,100,Van Ness Avenue,94102,ON,On-Site BMR Project,Rental,399,60,0,0,50,,,,2012,,"100 Van Ness Avenue, San Francisco, CA 94102",37.77668766,-122.4195253,100 Van Ness Avenue,San Francisco,CA,94102
298,Completed,2559 Van Ness Avenue & 1527 Filbert Street,2559,Van Ness Avenue,94109,FEE,Fee BMR Project,Unknown,27,0,0,0,0,,,,2010,2014,"2559 Van Ness Avenue, San Francisco, CA 94109",37.79926432,-122.4242427,2559 Van Ness Avenue,San Francisco,CA,94109
178,Entitled,Ritz Carlton,690,Market Street,94104,FEE,Fee BMR Project,Ownership,19,0,0,0,0,,,,2014,,"690 Market Street, San Francisco, CA 94104",37.78806414,-122.4029785,690 Market Street,San Francisco,CA,94104
194,Completed,Village at Petrini Place,2001,McAllister Street,94117,ON,On-Site BMR Project,Ownership,134,13,0,0,13,,,,1999,2004,"2001 McAllister Street, San Francisco, CA 94117",37.77690486,-122.4450773,2001 McAllister Street,San Francisco,CA,94117
